{
"type": "FeatureCollection",
"name": "waste_points",
"crs": { "type": "name", "properties": { "name": "urn:ogc:def:crs:OGC:1.3:CRS84" } },
"features": [
{ "type": "Feature", "properties": { "longitude": 77.73584186, "latitude": 12.99126489, "place_type": "industrial", "name": "Sadaramangala Industrial Area", "population": 1000, "wastekgday": 500, "wet_waste": 300, "dry_waste": 200, "onsitepros": false, "ext_waste": true, "wastelevel": "high" }, "geometry": { "type": "Point", "coordinates": [ 77.73584186, 12.99126489 ] } },
{ "type": "Feature", "properties": { "longitude": 77.73863907, "latitude": 12.99681345, "place_type": "industrial", "name": "Goods Terminal Area", "population": 800, "wastekgday": 700, "wet_waste": 300, "dry_waste": 400, "onsitepros": false, "ext_waste": true, "wastelevel": "high" }, "geometry": { "type": "Point", "coordinates": [ 77.73863907, 12.99681345 ] } },
{ "type": "Feature", "properties": { "longitude": 77.7467097, "latitude": 12.99121904, "place_type": "industrial", "name": "Kadugodi Industrial Area", "population": 1200, "wastekgday": 900, "wet_waste": 400, "dry_waste": 500, "onsitepros": false, "ext_waste": true, "wastelevel": "high" }, "geometry": { "type": "Point", "coordinates": [ 77.7467097, 12.99121904 ] } },
{ "type": "Feature", "properties": { "longitude": 77.74978204, "latitude": 12.99218201, "place_type": "residential", "name": "Kadugodi Colony", "population": 900, "wastekgday": 450, "wet_waste": 270, "dry_waste": 180, "onsitepros": false, "ext_waste": true, "wastelevel": "medium" }, "geometry": { "type": "Point", "coordinates": [ 77.74978204, 12.99218201 ] } },
{ "type": "Feature", "properties": { "longitude": 77.73767609, "latitude": 12.98724821, "place_type": "residential", "name": "Pattandur Layout", "population": 800, "wastekgday": 400, "wet_waste": 240, "dry_waste": 160, "onsitepros": false, "ext_waste": true, "wastelevel": "medium" }, "geometry": { "type": "Point", "coordinates": [ 77.73767609, 12.98724821 ] } },
{ "type": "Feature", "properties": { "longitude": 77.75238436, "latitude": 12.98383195, "place_type": "commercial", "name": "Main Road Shops", "population": 500, "wastekgday": 300, "wet_waste": 150, "dry_waste": 150, "onsitepros": false, "ext_waste": true, "wastelevel": "medium" }, "geometry": { "type": "Point", "coordinates": [ 77.75238436, 12.98383195 ] } },
{ "type": "Feature", "properties": { "longitude": 77.76175328, "latitude": 12.99864338, "place_type": "commercial", "name": "Old Whitefield Mixed Area", "population": 900, "wastekgday": 500, "wet_waste": 250, "dry_waste": 250, "onsitepros": false, "ext_waste": true, "wastelevel": "medium" }, "geometry": { "type": "Point", "coordinates": [ 77.76175328, 12.99864338 ] } },
{ "type": "Feature", "properties": { "longitude": 77.76812724, "latitude": 12.98841753, "place_type": "industrial", "name": "FCI Storage Area", "population": 600, "wastekgday": 700, "wet_waste": 250, "dry_waste": 450, "onsitepros": false, "ext_waste": true, "wastelevel": "high" }, "geometry": { "type": "Point", "coordinates": [ 77.76812724, 12.98841753 ] } },
{ "type": "Feature", "properties": { "longitude": 77.76455765, "latitude": 12.99152283, "place_type": "residential", "name": "VS Reddy Colony", "population": 1000, "wastekgday": 350, "wet_waste": 210, "dry_waste": 140, "onsitepros": false, "ext_waste": true, "wastelevel": "medium" }, "geometry": { "type": "Point", "coordinates": [ 77.76455765, 12.99152283 ] } },
{ "type": "Feature", "properties": { "longitude": 77.74849664, "latitude": 12.98350952, "place_type": "residential", "name": "Prashanth Extension", "population": 200, "wastekgday": 100, "wet_waste": 60, "dry_waste": 40, "onsitepros": false, "ext_waste": true, "wastelevel": "low" }, "geometry": { "type": "Point", "coordinates": [ 77.74849664, 12.98350952 ] } },
{ "type": "Feature", "properties": { "longitude": 77.76203558, "latitude": 12.98464445, "place_type": "institutional", "name": "MVJ Engineering College", "population": 600, "wastekgday": 250, "wet_waste": 150, "dry_waste": 100, "onsitepros": true, "ext_waste": true, "wastelevel": "medium" }, "geometry": { "type": "Point", "coordinates": [ 77.76203558, 12.98464445 ] } },
{ "type": "Feature", "properties": { "longitude": 77.76006664000001, "latitude": 12.98214244, "place_type": "residential", "name": "Sunrise Apartment", "population": 3000, "wastekgday": 900, "wet_waste": 540, "dry_waste": 360, "onsitepros": false, "ext_waste": true, "wastelevel": "high" }, "geometry": { "type": "Point", "coordinates": [ 77.76006664, 12.98214244 ] } },
{ "type": "Feature", "properties": { "longitude": 77.76083473, "latitude": 12.98218257, "place_type": "residential", "name": "Villa/Independent Housing", "population": 800, "wastekgday": 300, "wet_waste": 180, "dry_waste": 120, "onsitepros": false, "ext_waste": true, "wastelevel": "medium" }, "geometry": { "type": "Point", "coordinates": [ 77.76083473, 12.98218257 ] } },
{ "type": "Feature", "properties": { "longitude": 77.75593675, "latitude": 12.99141106, "place_type": "commercial", "name": "Road shops", "population": 300, "wastekgday": 150, "wet_waste": 75, "dry_waste": 75, "onsitepros": false, "ext_waste": true, "wastelevel": "low" }, "geometry": { "type": "Point", "coordinates": [ 77.75593675, 12.99141106 ] } },
{ "type": "Feature", "properties": { "longitude": 77.75834132, "latitude": 13.0018146, "place_type": "institutional", "name": "Sri Sathya Sai Higher Education", "population": 1000, "wastekgday": 400, "wet_waste": 240, "dry_waste": 160, "onsitepros": true, "ext_waste": true, "wastelevel": "medium" }, "geometry": { "type": "Point", "coordinates": [ 77.75834132, 13.0018146 ] } },
{ "type": "Feature", "properties": { "longitude": 77.75431747, "latitude": 12.97954586, "place_type": "residential", "name": "Ambedkar Nagar", "population": 500, "wastekgday": 250, "wet_waste": 150, "dry_waste": 100, "onsitepros": false, "ext_waste": true, "wastelevel": "low" }, "geometry": { "type": "Point", "coordinates": [ 77.75431747, 12.97954586 ] } },
{ "type": "Feature", "properties": { "longitude": 77.76827494, "latitude": 12.99746882, "place_type": "temple", "name": "Sri Kashi Vishweshwara Swamy Temple", "population": 800, "wastekgday": 300, "wet_waste": 180, "dry_waste": 120, "onsitepros": false, "ext_waste": true, "wastelevel": "medium" }, "geometry": { "type": "Point", "coordinates": [ 77.76827494, 12.99746882 ] } },
{ "type": "Feature", "properties": { "longitude": 77.76608326, "latitude": 12.99957667, "place_type": "residential", "name": "Patel's Green Valley", "population": 1500, "wastekgday": 500, "wet_waste": 300, "dry_waste": 200, "onsitepros": false, "ext_waste": true, "wastelevel": "medium" }, "geometry": { "type": "Point", "coordinates": [ 77.76608326, 12.99957667 ] } },
{ "type": "Feature", "properties": { "longitude": 77.76399936, "latitude": 12.99775625, "place_type": "holy place", "name": "Om", "population": 500, "wastekgday": 200, "wet_waste": 120, "dry_waste": 80, "onsitepros": false, "ext_waste": true, "wastelevel": "low" }, "geometry": { "type": "Point", "coordinates": [ 77.76399936, 12.99775625 ] } },
{ "type": "Feature", "properties": { "longitude": 77.7641311, "latitude": 12.99633106, "place_type": "holy place", "name": "Haji Sir Masjid", "population": 700, "wastekgday": 250, "wet_waste": 150, "dry_waste": 100, "onsitepros": false, "ext_waste": true, "wastelevel": "medium" }, "geometry": { "type": "Point", "coordinates": [ 77.7641311, 12.99633106 ] } },
{ "type": "Feature", "properties": { "longitude": 77.76695754000001, "latitude": 12.97915687, "place_type": "residential", "name": "Isha Misty Green", "population": 1200, "wastekgday": 400, "wet_waste": 240, "dry_waste": 160, "onsitepros": false, "ext_waste": true, "wastelevel": "medium" }, "geometry": { "type": "Point", "coordinates": [ 77.76695754, 12.97915687 ] } },
{ "type": "Feature", "properties": { "longitude": 77.76595152, "latitude": 12.98763618, "place_type": "residential", "name": "3G Crimson Villas", "population": 1000, "wastekgday": 350, "wet_waste": 210, "dry_waste": 140, "onsitepros": false, "ext_waste": true, "wastelevel": "medium" }, "geometry": { "type": "Point", "coordinates": [ 77.76595152, 12.98763618 ] } },
{ "type": "Feature", "properties": { "longitude": 77.76355624, "latitude": 12.98482172, "place_type": "residential", "name": "Ark Serene Country Apartments", "population": 2500, "wastekgday": 800, "wet_waste": 480, "dry_waste": 320, "onsitepros": false, "ext_waste": true, "wastelevel": "high" }, "geometry": { "type": "Point", "coordinates": [ 77.76355624, 12.98482172 ] } },
{ "type": "Feature", "properties": { "longitude": 77.76589164000001, "latitude": 12.98485765, "place_type": "residential", "name": "Chanasandra", "population": 2000, "wastekgday": 700, "wet_waste": 420, "dry_waste": 280, "onsitepros": false, "ext_waste": true, "wastelevel": "high" }, "geometry": { "type": "Point", "coordinates": [ 77.76589164, 12.98485765 ] } },
{ "type": "Feature", "properties": { "longitude": 77.75401103, "latitude": 12.98237853, "place_type": "residential", "name": "Shoba Habitech Apartments", "population": 3000, "wastekgday": 900, "wet_waste": 540, "dry_waste": 360, "onsitepros": false, "ext_waste": true, "wastelevel": "high" }, "geometry": { "type": "Point", "coordinates": [ 77.75401103, 12.98237853 ] } },
{ "type": "Feature", "properties": { "longitude": 77.75536437, "latitude": 12.98231865, "place_type": "residential", "name": "SV Heights", "population": 1500, "wastekgday": 500, "wet_waste": 300, "dry_waste": 200, "onsitepros": false, "ext_waste": true, "wastelevel": "medium" }, "geometry": { "type": "Point", "coordinates": [ 77.75536437, 12.98231865 ] } },
{ "type": "Feature", "properties": { "longitude": 77.75583145, "latitude": 12.98212702, "place_type": "residential", "name": "SV legacy", "population": 1800, "wastekgday": 600, "wet_waste": 360, "dry_waste": 240, "onsitepros": false, "ext_waste": true, "wastelevel": "medium" }, "geometry": { "type": "Point", "coordinates": [ 77.75583145, 12.98212702 ] } },
{ "type": "Feature", "properties": { "longitude": 77.7563105, "latitude": 12.98185157, "place_type": "residential", "name": "SV Prime", "population": 1800, "wastekgday": 600, "wet_waste": 360, "dry_waste": 240, "onsitepros": false, "ext_waste": true, "wastelevel": "medium" }, "geometry": { "type": "Point", "coordinates": [ 77.7563105, 12.98185157 ] } },
{ "type": "Feature", "properties": { "longitude": 77.75369964, "latitude": 12.98461812, "place_type": "institutional", "name": "Divine Light Trust for Blind", "population": 400, "wastekgday": 150, "wet_waste": 90, "dry_waste": 60, "onsitepros": true, "ext_waste": true, "wastelevel": "low" }, "geometry": { "type": "Point", "coordinates": [ 77.75369964, 12.98461812 ] } },
{ "type": "Feature", "properties": { "longitude": 77.75611888, "latitude": 12.98468998, "place_type": "residential", "name": "Maithri Layout", "population": 1200, "wastekgday": 400, "wet_waste": 240, "dry_waste": 160, "onsitepros": false, "ext_waste": true, "wastelevel": "medium" }, "geometry": { "type": "Point", "coordinates": [ 77.75611888, 12.98468998 ] } },
{ "type": "Feature", "properties": { "longitude": 77.75860998, "latitude": 12.98090543, "place_type": "institutional", "name": "Government Polytechnic College", "population": 1200, "wastekgday": 500, "wet_waste": 300, "dry_waste": 200, "onsitepros": true, "ext_waste": true, "wastelevel": "medium" }, "geometry": { "type": "Point", "coordinates": [ 77.75860998, 12.98090543 ] } },
{ "type": "Feature", "properties": { "longitude": 77.75195109000001, "latitude": 12.98531275, "place_type": "residential", "name": "Prestige Park View", "population": 2500, "wastekgday": 850, "wet_waste": 510, "dry_waste": 340, "onsitepros": false, "ext_waste": true, "wastelevel": "high" }, "geometry": { "type": "Point", "coordinates": [ 77.75195109, 12.98531275 ] } },
{ "type": "Feature", "properties": { "longitude": 77.77537696, "latitude": 12.98409116, "place_type": "residential", "name": "GK Tropical Springs", "population": 2000, "wastekgday": 700, "wet_waste": 420, "dry_waste": 280, "onsitepros": false, "ext_waste": true, "wastelevel": "high" }, "geometry": { "type": "Point", "coordinates": [ 77.77537696, 12.98409116 ] } },
{ "type": "Feature", "properties": { "longitude": 77.77368829, "latitude": 12.98224679, "place_type": "residential", "name": "Surya Humming Bird", "population": 2200, "wastekgday": 750, "wet_waste": 450, "dry_waste": 300, "onsitepros": false, "ext_waste": true, "wastelevel": "high" }, "geometry": { "type": "Point", "coordinates": [ 77.77368829, 12.98224679 ] } },
{ "type": "Feature", "properties": { "longitude": 77.7685025, "latitude": 12.98345042, "place_type": "main roads", "name": "Channasandra main road", "population": 1500, "wastekgday": 600, "wet_waste": 300, "dry_waste": 300, "onsitepros": false, "ext_waste": true, "wastelevel": "medium" }, "geometry": { "type": "Point", "coordinates": [ 77.7685025, 12.98345042 ] } },
{ "type": "Feature", "properties": { "longitude": 77.74821444, "latitude": 12.98770205, "place_type": "ITPL", "name": "Titanium Tech Park", "population": 5000, "wastekgday": 2000, "wet_waste": 800, "dry_waste": 1200, "onsitepros": false, "ext_waste": true, "wastelevel": "high" }, "geometry": { "type": "Point", "coordinates": [ 77.74821444, 12.98770205 ] } },
{ "type": "Feature", "properties": { "longitude": 77.74936418, "latitude": 12.97935448, "place_type": "residential", "name": "MIMS Springdate Villas", "population": 1200, "wastekgday": 400, "wet_waste": 240, "dry_waste": 160, "onsitepros": false, "ext_waste": true, "wastelevel": "medium" }, "geometry": { "type": "Point", "coordinates": [ 77.74936418, 12.97935448 ] } },
{ "type": "Feature", "properties": { "longitude": 77.74357957, "latitude": 12.98046829, "place_type": "residential", "name": "Prestige Palms", "population": 2000, "wastekgday": 700, "wet_waste": 420, "dry_waste": 280, "onsitepros": false, "ext_waste": true, "wastelevel": "high" }, "geometry": { "type": "Point", "coordinates": [ 77.74357957, 12.98046829 ] } },
{ "type": "Feature", "properties": { "longitude": 77.76755636, "latitude": 12.99654064, "place_type": "holy place", "name": "OM temple 2", "population": 400, "wastekgday": 150, "wet_waste": 90, "dry_waste": 60, "onsitepros": false, "ext_waste": true, "wastelevel": "low" }, "geometry": { "type": "Point", "coordinates": [ 77.76755636, 12.99654064 ] } }
]
}
